,City,Cloudiness,Country,Date,Humidity,Lat,Lng,Max_temp,Wind_speed
1,todos santos,75.0,MX,1549158480.0,77.0,23.45,-110.23,69.8,11.77
2,bredasdorp,88.0,ZA,1549159200.0,77.0,-34.53,20.04,68.0,2.24
3,grindavik,75.0,IS,1549161000.0,68.0,63.84,-22.43,28.4,16.11
4,lata,0.0,IN,1549162988.0,63.0,30.78,78.62,33.21,2.59
5,bad driburg,90.0,DE,1549162200.0,97.0,51.74,9.02,32.0,3.36
6,mataura,20.0,NZ,1549162989.0,50.0,-46.19,168.86,73.35,5.5
7,provideniya,92.0,RU,1549163023.0,95.0,64.42,-173.23,32.49,27.2
8,punta arenas,75.0,CL,1549159200.0,82.0,-53.16,-70.91,55.4,9.17
9,kununurra,0.0,AU,1549161000.0,55.0,-15.77,128.74,91.4,10.29
10,murgab,90.0,TM,1549159200.0,100.0,37.5,61.97,42.8,5.73
11,hermanus,76.0,ZA,1549162991.0,96.0,-34.42,19.24,61.88,4.38
12,kavieng,88.0,PG,1549162991.0,100.0,-2.57,150.8,82.31,6.17
13,vao,92.0,EE,1549162991.0,96.0,59.1,26.19,32.63,12.66
14,raudeberg,90.0,NO,1549160400.0,55.0,61.99,5.14,33.8,12.75
15,new norfolk,20.0,AU,1549161000.0,32.0,-42.78,147.06,80.6,14.99
16,ahipara,64.0,NZ,1549162992.0,64.0,-35.17,173.16,77.54,13.56
17,samarai,20.0,PG,1549162993.0,96.0,-10.62,150.67,86.67,9.42
18,nishihara,20.0,JP,1549161000.0,53.0,35.74,139.53,51.8,3.36
19,hobart,20.0,AU,1549161000.0,32.0,-42.88,147.33,80.6,14.99
20,touros,40.0,BR,1549159200.0,88.0,-5.2,-35.46,78.8,4.7
21,cherskiy,8.0,RU,1549162999.0,58.0,68.75,161.3,-12.24,12.44
22,dikson,68.0,RU,1549163000.0,89.0,73.51,80.55,-5.76,13.67
23,cidreira,100.0,BR,1549163000.0,99.0,-30.17,-50.22,71.06,9.86
24,la asuncion,56.0,EC,1549163000.0,100.0,-1.64,-78.74,44.51,1.36
25,tasiilaq,88.0,GL,1549158600.0,63.0,65.61,-37.64,26.6,32.21
26,rikitea,32.0,PF,1549163001.0,100.0,-23.12,-134.97,80.78,8.19
27,parakai,0.0,NZ,1549161000.0,60.0,-36.66,174.44,75.2,12.75
28,ossora,80.0,RU,1549163002.0,91.0,59.24,163.07,15.93,17.92
29,tura,0.0,IN,1549163002.0,90.0,25.52,90.21,64.13,3.04
30,vaini,8.0,IN,1549159200.0,72.0,15.34,74.49,59.0,5.95
31,nikolskoye,75.0,RU,1549161000.0,92.0,59.7,30.79,26.6,11.18
32,upernavik,0.0,GL,1549163004.0,98.0,72.79,-56.15,5.94,6.17
33,ponta do sol,20.0,BR,1549163004.0,73.0,-20.63,-46.0,69.98,3.6
34,sinnamary,80.0,GF,1549163004.0,97.0,5.38,-52.96,79.16,12.77
35,road town,1.0,VG,1549158780.0,73.0,18.42,-64.62,75.92,11.41
36,astoria,90.0,US,1549158900.0,76.0,46.19,-123.83,44.96,10.29
37,jamestown,0.0,AU,1549163006.0,42.0,-33.21,138.6,94.14,7.52
38,yanaul,92.0,RU,1549163006.0,87.0,56.27,54.93,13.68,3.27
39,nanga eboko,44.0,CM,1549163006.0,79.0,4.68,12.37,73.8,8.41
40,lorengau,76.0,PG,1549163007.0,100.0,-2.02,147.27,81.72,8.75
41,necochea,0.0,AR,1549162827.0,98.0,-38.55,-58.74,51.66,4.5
42,mar del plata,0.0,AR,1549163007.0,69.0,-46.43,-67.52,62.46,9.86
43,port elizabeth,1.0,US,1549162440.0,77.0,39.31,-74.98,28.94,3.36
44,airai,24.0,TL,1549163008.0,81.0,-8.93,125.41,80.91,1.92
45,butaritari,0.0,KI,1549163008.0,99.0,3.07,172.79,84.96,16.8
46,noumea,75.0,NC,1549161000.0,58.0,-22.28,166.46,87.8,18.34
47,cape town,75.0,ZA,1549159200.0,88.0,-33.93,18.42,64.4,9.17
48,ruski krstur,0.0,RS,1549161000.0,66.0,45.56,19.42,51.8,20.8
49,nantucket,75.0,US,1549161300.0,100.0,41.28,-70.1,35.96,19.46
50,victoria,75.0,BN,1549161000.0,74.0,5.28,115.24,87.8,3.36
51,ushuaia,40.0,AR,1549159200.0,76.0,-54.81,-68.31,53.6,27.51
52,tolaga bay,76.0,NZ,1549163011.0,66.0,-38.37,178.3,66.83,11.1
53,geraldton,90.0,CA,1549160880.0,76.0,49.72,-86.95,-4.01,9.17
54,busselton,0.0,AU,1549163011.0,95.0,-33.64,115.35,68.67,15.9
55,port blair,0.0,IN,1549163012.0,99.0,11.67,92.75,82.58,12.1
56,puerto ayora,0.0,EC,1549163012.0,100.0,-0.74,-90.35,78.93,9.98
57,srandakan,36.0,ID,1549163012.0,87.0,-7.94,110.25,83.79,4.38
58,east london,32.0,ZA,1549163013.0,95.0,-33.02,27.91,74.79,20.71
59,vestmannaeyjar,92.0,IS,1549162836.0,100.0,63.44,-20.27,29.66,13.33
60,kaeo,92.0,NZ,1549163013.0,64.0,-35.1,173.78,74.97,18.7
61,khatanga,36.0,RU,1549163013.0,63.0,71.98,102.47,-13.32,3.6
62,port alfred,56.0,ZA,1549163014.0,98.0,-33.59,26.89,68.63,10.54
63,bagdarin,0.0,RU,1549163014.0,33.0,54.44,113.59,-25.65,3.38
64,ola,68.0,RU,1549163015.0,100.0,59.58,151.3,9.27,17.92
65,kabare,12.0,RW,1549163015.0,99.0,-1.65,29.38,56.03,3.15
66,aklavik,5.0,CA,1549159200.0,69.0,68.22,-135.01,-13.01,8.05
67,faanui,92.0,PF,1549163015.0,100.0,-16.48,-151.75,82.31,12.77
68,hilo,40.0,US,1549158780.0,68.0,19.71,-155.08,77.0,8.05
69,atuona,0.0,PF,1549163037.0,100.0,-9.8,-139.03,81.68,18.37
70,rio gallegos,0.0,AR,1549159200.0,52.0,-51.62,-69.22,64.4,21.92
71,yellowknife,20.0,CA,1549159200.0,66.0,62.45,-114.38,-32.81,6.93
72,katsuura,75.0,JP,1549161060.0,76.0,33.93,134.5,48.2,11.41
73,chuguyevka,56.0,RU,1549163038.0,52.0,44.17,133.87,30.74,3.27
74,salima,80.0,MW,1549163038.0,100.0,-13.78,34.45,68.22,2.82
75,albany,90.0,US,1549162320.0,62.0,42.65,-73.75,30.92,3.36
76,port lincoln,0.0,AU,1549163039.0,80.0,-34.72,135.86,73.31,18.81
77,mitsamiouli,20.0,KM,1549163040.0,100.0,-11.38,43.28,80.1,6.96
78,caceres,88.0,CO,1549163040.0,100.0,5.53,-74.53,66.83,2.59
79,lavrentiya,88.0,RU,1549163041.0,97.0,65.58,-170.99,32.63,28.66
80,tuktoyaktuk,5.0,CA,1549159200.0,74.0,69.44,-133.03,-23.81,10.29
81,killybegs,88.0,IE,1549163041.0,100.0,54.63,-8.45,39.83,14.79
82,buala,88.0,SB,1549163042.0,90.0,-8.15,159.59,83.84,7.52
83,barrow,8.0,AR,1549163042.0,92.0,-38.31,-60.23,51.26,2.93
84,kieta,76.0,PG,1549163042.0,93.0,-6.22,155.63,85.01,6.17
85,fort nelson,90.0,CA,1549159200.0,75.0,58.81,-122.69,-16.61,2.24
86,biak,8.0,ID,1549163043.0,86.0,-0.91,122.88,84.33,2.37
87,burgeo,80.0,CA,1549162807.0,100.0,47.61,-57.61,22.68,23.06
88,udachnyy,76.0,RU,1549163043.0,40.0,66.42,112.4,-26.87,4.83
89,wawa,8.0,NG,1549163044.0,81.0,9.9,4.41,69.03,8.19
90,three hills,90.0,CA,1549159200.0,69.0,51.7,-113.27,-7.61,12.75
91,havoysund,8.0,NO,1549160400.0,61.0,71.0,24.66,14.0,41.38
92,saldanha,24.0,PT,1549163045.0,85.0,41.42,-6.55,25.61,3.04
93,krasnotorka,88.0,UA,1549163046.0,97.0,48.68,37.52,33.03,6.4
94,yumen,0.0,CN,1549163046.0,62.0,40.29,97.04,12.06,6.06
95,hami,0.0,CN,1549163046.0,57.0,42.84,93.51,10.31,3.38
96,saint-augustin,0.0,FR,1549161000.0,80.0,44.83,-0.61,35.6,8.05
97,xining,0.0,CN,1549162927.0,20.0,36.62,101.77,25.61,8.97
98,iquitos,0.0,PE,1549159200.0,94.0,-3.75,-73.25,75.2,4.83
99,awbari,0.0,LY,1549163048.0,31.0,26.59,12.77,52.79,8.75
100,vardo,1.0,US,1549162380.0,91.0,39.62,-77.74,32.0,5.82
101,bluff,80.0,AU,1549163048.0,52.0,-23.58,149.07,85.23,17.81
102,deputatskiy,0.0,RU,1549163049.0,0.0,69.3,139.9,-44.82,2.71
103,takoradi,92.0,GH,1549163049.0,100.0,4.89,-1.75,78.12,5.95
104,formosa,0.0,AR,1549159200.0,94.0,-26.19,-58.17,75.2,4.7
105,umm lajj,0.0,SA,1549163050.0,100.0,25.02,37.27,55.89,6.51
106,kapaa,90.0,US,1549158960.0,78.0,22.08,-159.32,78.08,14.99
107,pangody,8.0,RU,1549163050.0,78.0,65.85,74.49,-37.8,9.75
108,antigonish,90.0,CA,1549159200.0,85.0,45.62,-61.99,17.6,4.7
109,ruteng,68.0,ID,1549163051.0,90.0,-8.61,120.46,79.02,4.72
110,thompson,90.0,CA,1549159200.0,75.0,55.74,-97.86,-20.21,8.05
111,hay river,75.0,CA,1549159200.0,73.0,60.82,-115.79,-32.81,4.7
112,margate,20.0,AU,1549161000.0,32.0,-43.03,147.26,80.6,14.99
113,georgetown,40.0,GY,1549159200.0,94.0,6.8,-58.16,73.4,4.83
114,ngunguru,80.0,NZ,1549163053.0,97.0,-35.62,174.5,70.79,24.52
115,maniitsoq,0.0,GL,1549163054.0,73.0,65.42,-52.9,13.73,15.23
116,kasongo-lunda,44.0,CD,1549163054.0,97.0,-6.48,16.82,68.63,1.36
117,souillac,0.0,FR,1549161000.0,80.0,45.6,-0.6,35.6,11.41
118,kisanga,64.0,CD,1549163055.0,93.0,-11.72,27.4,64.31,2.59
119,poum,56.0,MK,1549163055.0,80.0,41.28,20.71,35.55,3.71
120,qaanaaq,0.0,GL,1549163055.0,87.0,77.48,-69.36,-20.52,5.61
121,kaitangata,8.0,NZ,1549162974.0,67.0,-46.28,169.85,67.95,5.61
122,codrington,40.0,AU,1549159200.0,45.0,-28.95,153.24,87.8,12.75
123,bandarbeyla,92.0,SO,1549163056.0,100.0,9.49,50.81,75.96,16.24
124,solnechnyy,0.0,RU,1549163056.0,65.0,50.72,136.64,-0.32,4.38
125,carndonagh,92.0,IE,1549163057.0,98.0,55.25,-7.27,37.62,12.44
126,kisangani,48.0,CD,1549163057.0,90.0,0.52,25.21,73.62,4.38
127,benguela,0.0,AO,1549163057.0,100.0,-12.58,13.4,76.46,3.83
128,mount gambier,0.0,AU,1549159200.0,30.0,-37.83,140.78,86.0,13.87
129,bathsheba,20.0,BB,1549159200.0,73.0,13.22,-59.52,75.2,11.41
130,konstantinovka,80.0,MD,1549163058.0,94.0,47.99,28.86,34.83,9.42
131,tessalit,0.0,ML,1549163059.0,52.0,20.2,1.01,48.29,2.82
132,tiksi,24.0,RU,1549163059.0,77.0,71.64,128.87,-37.89,2.93
133,gwanda,0.0,ZW,1549163059.0,76.0,-20.94,29.0,66.87,9.42
134,port-gentil,92.0,GA,1549163060.0,98.0,-0.72,8.78,81.63,6.06
135,sao joao da barra,0.0,BR,1549163060.0,98.0,-21.64,-41.05,81.27,28.54
136,ilebo,8.0,CD,1549163060.0,95.0,-4.33,20.59,73.71,2.15
137,severo-kurilsk,76.0,RU,1549163061.0,100.0,50.68,156.12,31.28,27.31
138,avarua,75.0,CK,1549159200.0,83.0,-21.21,-159.78,80.6,5.82
139,castro,0.0,CL,1549159200.0,43.0,-42.48,-73.76,73.4,11.41
140,tsiroanomandidy,64.0,MG,1549163062.0,93.0,-18.77,46.05,61.2,3.6
141,salamanca,0.0,ES,1549161000.0,92.0,40.97,-5.66,28.4,3.36
142,kommunisticheskiy,64.0,RU,1549163063.0,61.0,61.68,64.48,-20.61,5.06
143,nizhniy tsasuchey,0.0,RU,1549163063.0,36.0,50.52,115.13,-12.15,9.08
144,zhigansk,36.0,RU,1549163064.0,71.0,66.77,123.37,-36.5,5.95
145,makushino,88.0,RU,1549163064.0,86.0,55.21,67.25,-5.67,10.31
146,princeton,90.0,US,1549162500.0,92.0,41.37,-89.46,40.28,5.82
147,saint-philippe,75.0,CA,1549161300.0,95.0,45.36,-73.48,17.6,8.97
148,tuatapere,32.0,NZ,1549163065.0,69.0,-46.13,167.69,65.93,8.41
149,haines junction,0.0,CA,1549163065.0,47.0,60.75,-137.51,-31.1,1.7
150,newport,0.0,GB,1549160400.0,86.0,51.59,-3.0,32.0,6.93
151,okoneshnikovo,44.0,RU,1549163066.0,90.0,54.84,75.08,-20.34,7.4
152,aleksandrov gay,80.0,RU,1549163066.0,85.0,50.14,48.57,9.45,3.38
153,hithadhoo,20.0,MV,1549163067.0,99.0,-0.6,73.08,83.66,14.79
154,torbat-e jam,76.0,IR,1549163067.0,86.0,35.24,60.63,30.78,2.59
155,batemans bay,8.0,AU,1549163067.0,75.0,-35.71,150.18,82.26,7.18
156,te anau,12.0,NZ,1549163068.0,42.0,-45.41,167.72,68.76,8.3
157,chokurdakh,20.0,RU,1549163068.0,68.0,70.62,147.9,-35.55,2.82
158,kenai,90.0,US,1549158960.0,73.0,60.55,-151.26,17.06,11.41
159,iqaluit,90.0,CA,1549160280.0,77.0,63.75,-68.52,5.0,24.16
160,arraial do cabo,0.0,BR,1549163069.0,80.0,-22.97,-42.02,79.2,17.13
161,neiafu,40.0,TO,1549159200.0,70.0,-18.65,-173.98,84.2,6.93
162,brae,0.0,GB,1549162200.0,74.0,60.4,-1.35,33.8,11.41
163,pisco,75.0,PE,1549159200.0,88.0,-13.71,-76.2,75.2,14.99
164,qasigiannguit,56.0,GL,1549158600.0,38.0,68.82,-51.19,26.6,19.46
165,imbituba,40.0,BR,1549159200.0,94.0,-28.24,-48.67,71.6,3.36
166,norman wells,20.0,CA,1549159200.0,74.0,65.28,-126.83,-27.41,5.82
167,ilulissat,56.0,GL,1549158600.0,38.0,69.22,-51.1,26.6,19.46
168,bure,0.0,NG,1549163072.0,58.0,10.52,10.33,62.24,3.15
169,coquimbo,90.0,CL,1549159200.0,93.0,-29.95,-71.34,62.6,1.12
170,laguna,75.0,MX,1549158060.0,68.0,27.52,-110.01,66.2,2.24
171,jutai,88.0,BR,1549163073.0,96.0,-1.71,-47.89,75.33,2.93
172,mwinilunga,0.0,ZM,1549163073.0,97.0,-11.73,24.43,59.76,2.37
173,maumere,100.0,ID,1549163073.0,99.0,-8.63,122.22,81.68,11.65
174,vostok,88.0,RU,1549163074.0,60.0,46.45,135.83,20.7,2.82
175,ambilobe,92.0,MG,1549163074.0,98.0,-13.19,49.05,72.86,3.15
176,kodiak,90.0,US,1549161300.0,100.0,39.95,-94.76,50.0,10.29
177,nanortalik,76.0,GL,1549163076.0,100.0,60.14,-45.24,27.54,17.92
178,benghazi,20.0,LY,1549162853.0,90.0,32.12,20.07,65.93,26.98
179,the pas,90.0,CA,1549161900.0,69.0,53.82,-101.24,-13.01,6.93
180,zhanaozen,56.0,KZ,1549163077.0,88.0,43.35,52.85,25.11,3.49
181,loralai,0.0,PK,1549163077.0,67.0,30.37,68.6,21.83,2.26
182,ancud,0.0,CL,1549159200.0,43.0,-41.87,-73.83,73.4,11.41
183,sterling,1.0,US,1549162440.0,68.0,39.0,-77.4,32.0,6.93
184,beian,0.0,NO,1549158600.0,68.0,63.66,9.57,24.8,17.22
185,monrovia,75.0,LR,1549161000.0,94.0,6.33,-10.8,75.2,3.38
186,salamiyah,0.0,SY,1549163079.0,71.0,35.01,37.05,26.64,3.04
187,nouadhibou,32.0,MR,1549163079.0,87.0,20.93,-17.03,61.56,15.68
188,broken hill,8.0,AU,1549159200.0,16.0,-31.97,141.45,100.4,12.75
189,moron,12.0,VE,1549163080.0,94.0,10.49,-68.2,63.23,2.37
190,mayo,5.0,CA,1549159200.0,65.0,63.59,-135.9,-36.41,2.93
191,kanniyakumari,8.0,IN,1549162980.0,100.0,8.08,77.57,78.66,19.15
192,pilar,0.0,AR,1549159200.0,55.0,-34.46,-58.91,66.2,11.41
193,taltal,0.0,CL,1549163081.0,93.0,-25.41,-70.49,61.34,2.26
194,ileza,68.0,RU,1549163082.0,88.0,61.05,43.9,11.93,4.38
195,balsa,0.0,HU,1549161000.0,86.0,48.17,21.54,41.0,6.93
196,hamina,90.0,FI,1549162200.0,85.0,60.57,27.2,19.4,19.46
197,aksarka,8.0,RU,1549163083.0,0.0,66.56,67.8,-42.62,4.38
198,flinders,0.0,AU,1549159200.0,55.0,-34.58,150.85,87.8,12.75
199,rockhampton,40.0,AU,1549161000.0,58.0,-23.38,150.51,84.2,16.11
200,ketchikan,20.0,US,1549158780.0,37.0,55.34,-131.65,15.08,8.05
201,hasaki,20.0,JP,1549161000.0,53.0,35.73,140.83,53.6,3.36
202,gornopravdinsk,8.0,RU,1549163084.0,47.0,60.06,69.92,-28.8,4.27
203,barkhan,0.0,PK,1549162824.0,80.0,29.9,69.52,32.31,3.15
204,flin flon,80.0,CA,1549163085.0,67.0,54.77,-101.88,-15.35,6.17
205,jinchang,0.0,CN,1549163085.0,58.0,38.52,102.19,3.6,2.71
206,palmer,0.0,AU,1549161000.0,45.0,-34.85,139.16,84.2,16.11
207,cabo san lucas,75.0,MX,1549158480.0,77.0,22.89,-109.91,69.8,3.71
208,boende,64.0,CD,1549163086.0,88.0,-0.28,20.88,73.89,2.37
209,bambous virieux,20.0,MU,1549159200.0,94.0,-20.34,57.76,73.4,4.16
210,torbay,90.0,CA,1549159200.0,67.0,47.66,-52.73,17.6,14.99
211,majagual,44.0,CO,1549163087.0,60.0,8.54,-74.63,82.13,1.92
212,thinadhoo,56.0,MV,1549163087.0,98.0,0.53,72.93,83.52,13.89
213,talas,0.0,TR,1549162200.0,85.0,38.69,35.55,24.8,2.24
214,xuddur,0.0,SO,1549163088.0,67.0,4.12,43.89,66.83,13.78
215,masuguru,56.0,MZ,1549163089.0,97.0,-11.38,38.46,72.86,2.93
216,saskylakh,24.0,RU,1549163089.0,42.0,71.97,114.09,-26.6,8.52
217,hofn,0.0,IS,1549163089.0,100.0,64.25,-15.21,24.12,3.6
218,tagusao,56.0,PH,1549163090.0,83.0,9.19,117.81,81.14,6.73
219,manokwari,80.0,ID,1549163090.0,98.0,-0.87,134.08,82.49,11.88
220,marsh harbour,92.0,BS,1549163090.0,100.0,26.54,-77.06,69.53,26.08
221,vila franca do campo,75.0,PT,1549161000.0,82.0,37.72,-25.43,60.8,12.75
222,shilka,0.0,RU,1549163091.0,44.0,51.85,116.03,-15.93,8.75
223,lebrija,0.0,ES,1549161000.0,80.0,36.92,-6.08,46.4,5.82
224,kalmunai,88.0,LK,1549163092.0,100.0,7.42,81.82,73.98,4.38
225,calvia,20.0,ES,1549161000.0,66.0,39.57,2.51,48.2,9.17
226,cockburn town,32.0,TC,1549163092.0,100.0,21.46,-71.14,77.85,19.82
227,kahului,90.0,US,1549159140.0,93.0,20.89,-156.47,73.04,14.99
228,alindao,36.0,CF,1549163093.0,87.0,5.04,21.21,69.48,5.95
229,ust-kut,24.0,RU,1549163093.0,36.0,56.78,105.75,-24.93,3.38
230,mahebourg,20.0,MU,1549159200.0,94.0,-20.41,57.7,73.4,4.16
231,chapais,1.0,CA,1549159200.0,76.0,49.78,-74.86,-11.21,5.82
232,teguise,0.0,ES,1549161000.0,59.0,29.06,-13.56,60.8,20.8
233,clyde river,90.0,CA,1549161000.0,83.0,70.47,-68.59,-7.61,27.51
234,eydhafushi,0.0,MV,1549163095.0,100.0,5.1,73.07,81.36,11.65
235,requena,20.0,ES,1549161000.0,36.0,39.49,-1.1,46.4,18.34
236,borovskoy,92.0,KZ,1549163095.0,82.0,53.8,64.15,8.1,6.73
237,djougou,12.0,BJ,1549163096.0,90.0,9.71,1.67,72.36,3.15
238,morrisburg,20.0,CA,1549162380.0,91.0,44.9,-75.18,24.8,4.7
239,praia,0.0,BR,1549159200.0,47.0,-20.25,-43.81,78.8,8.05
240,sorland,36.0,NO,1549163097.0,100.0,67.67,12.69,31.5,19.37
241,khowai,0.0,IN,1549161000.0,77.0,24.08,91.6,60.8,2.93
242,diphu,0.0,IN,1549163098.0,66.0,25.84,93.44,66.29,2.71
243,santa maria da boa vista,44.0,BR,1549163098.0,62.0,-8.8,-39.83,78.93,6.4
244,college,1.0,US,1549159080.0,78.0,64.86,-147.8,3.92,6.73
245,tongren,68.0,CN,1549163099.0,89.0,27.72,109.18,51.75,10.54
246,longyearbyen,20.0,NO,1549158600.0,63.0,78.22,15.63,28.4,9.17
247,lahat,68.0,ID,1549163099.0,99.0,-3.78,103.55,77.67,4.16
248,arman,36.0,RU,1549163100.0,55.0,59.7,150.17,2.07,14.45
249,santa maria,75.0,BR,1549159200.0,88.0,-29.69,-53.81,71.6,4.7
250,ternate,40.0,PH,1549159200.0,74.0,14.29,120.72,78.8,4.7
251,sakaraha,0.0,MG,1549163102.0,90.0,-22.91,44.53,62.28,2.59
252,gamba,0.0,CN,1549163102.0,58.0,28.28,88.52,-7.02,2.15
253,vanavara,8.0,RU,1549163102.0,0.0,60.35,102.28,-44.55,2.59
254,acapulco,5.0,MX,1549158480.0,74.0,16.86,-99.88,78.8,6.93
255,cayenne,90.0,GF,1549161000.0,94.0,4.94,-52.33,77.0,8.97
256,yablonovo,90.0,RU,1549161000.0,98.0,50.85,37.36,32.0,4.47
257,ekibastuz,80.0,KZ,1549163104.0,73.0,51.72,75.32,0.68,5.73
258,el torno,64.0,BO,1549159200.0,100.0,-17.99,-63.38,71.6,5.82
259,bosaso,8.0,SO,1549163105.0,100.0,11.28,49.18,73.04,5.95
260,grand gaube,20.0,MU,1549159200.0,94.0,-20.01,57.66,73.4,9.75
261,dingle,24.0,PH,1549163105.0,68.0,11.0,122.67,80.91,15.01
262,mandurah,0.0,AU,1549161000.0,35.0,-32.55,115.7,71.6,16.11
263,ostrovnoy,56.0,RU,1549163106.0,93.0,68.05,39.51,3.24,6.73
264,yokadouma,56.0,CM,1549163106.0,85.0,3.52,15.05,71.37,4.38
265,vanimo,36.0,PG,1549163107.0,99.0,-2.67,141.3,83.66,14.23
266,altay,68.0,CN,1549163107.0,83.0,47.83,88.13,-6.57,1.59
267,tautira,75.0,PF,1549159200.0,70.0,-17.73,-149.15,86.0,12.75
268,arinos,0.0,BR,1549163108.0,52.0,-15.92,-46.11,74.43,4.38
269,tapes,44.0,BR,1549163108.0,90.0,-30.67,-51.4,70.11,12.66
270,rutland,90.0,US,1549162380.0,65.0,43.61,-72.97,30.02,3.36
271,porbandar,0.0,IN,1549161000.0,37.0,21.64,69.61,66.2,9.17
272,worland,1.0,US,1549161300.0,65.0,44.02,-107.96,37.76,7.63
273,salalah,40.0,OM,1549158600.0,78.0,17.01,54.1,73.4,4.7
274,la cumbre,40.0,DO,1549159200.0,126.0,19.55,-70.62,75.2,5.82
275,lompoc,40.0,US,1549159080.0,71.0,34.64,-120.46,55.94,6.93
276,meulaboh,12.0,ID,1549163111.0,100.0,4.14,96.13,81.54,3.83
277,guerrero negro,92.0,MX,1549163111.0,73.0,27.97,-114.04,63.59,3.6
278,bud,92.0,NO,1549160400.0,67.0,62.91,6.91,32.0,10.29
279,nuuk,36.0,GL,1549163112.0,100.0,64.17,-51.74,11.84,11.65
280,darab,100.0,IR,1549163112.0,95.0,28.75,54.55,42.71,1.92
281,baykalsk,0.0,RU,1549163113.0,91.0,51.52,104.15,-16.7,2.71
282,skibbereen,75.0,IE,1549161000.0,100.0,51.55,-9.27,35.6,4.7
283,jumla,0.0,NP,1549163114.0,61.0,29.28,82.18,12.56,1.7
284,shelburne,90.0,CA,1549161000.0,100.0,44.08,-80.2,32.0,2.24
285,champerico,40.0,MX,1549158480.0,69.0,16.38,-93.6,75.2,9.17
286,giyon,8.0,ET,1549163115.0,44.0,8.53,37.98,47.25,5.39
287,urengoy,12.0,RU,1549163116.0,72.0,65.96,78.37,-36.27,8.75
288,eskil,0.0,TR,1549163116.0,84.0,38.4,33.41,26.73,3.15
289,afyonkarahisar,0.0,TR,1549163116.0,72.0,38.76,30.53,22.64,2.71
290,ribeira grande,80.0,PT,1549163117.0,98.0,38.52,-28.7,62.37,14.45
291,san patricio,88.0,PY,1549163117.0,73.0,-26.98,-56.83,78.26,5.5
292,sitka,0.0,US,1549163117.0,64.0,37.17,-99.65,58.01,17.81
293,hanchuan,20.0,CN,1549159200.0,65.0,30.65,113.83,46.4,6.71
294,klaksvik,64.0,FO,1549160400.0,79.0,62.23,-6.59,24.8,2.24
295,itoman,40.0,JP,1549161000.0,57.0,26.12,127.67,75.2,14.99
296,yeppoon,40.0,AU,1549161000.0,58.0,-23.13,150.74,84.2,16.11
297,sisimiut,8.0,GL,1549162988.0,100.0,66.94,-53.67,3.6,3.71
298,ganzhou,56.0,CN,1549163120.0,89.0,25.86,114.93,68.85,4.61
299,nautla,0.0,MX,1549163121.0,100.0,20.22,-96.78,73.62,6.73
300,padang,40.0,ID,1549159200.0,83.0,-0.92,100.36,82.4,1.12
301,beipiao,24.0,CN,1549163122.0,19.0,41.8,120.76,16.83,18.7
302,mbandaka,8.0,CD,1549163122.0,97.0,0.05,18.26,74.25,1.36
303,mogadishu,56.0,SO,1549163122.0,100.0,2.04,45.34,77.76,22.84
304,mount isa,90.0,AU,1549161660.0,94.0,-20.73,139.49,77.0,16.11
305,aracati,56.0,BR,1549163123.0,87.0,-4.56,-37.77,77.4,5.73
306,zhanakorgan,44.0,KZ,1549163123.0,69.0,43.91,67.25,21.87,2.71
307,westport,92.0,IE,1549163124.0,100.0,53.8,-9.52,40.68,14.34
308,san jose,92.0,PH,1549162902.0,99.0,15.79,120.99,72.99,1.25
309,ukiah,90.0,US,1549158960.0,76.0,39.15,-123.21,50.0,4.7
310,seymour,80.0,US,1549163063.0,66.0,33.59,-99.26,64.44,14.0
311,izhma,48.0,RU,1549163126.0,68.0,65.01,53.91,-14.85,6.06
312,nizhneangarsk,8.0,RU,1549163127.0,44.0,55.78,109.57,-29.79,1.92
313,chuy,92.0,UY,1549162912.0,94.0,-33.69,-53.46,67.19,10.98
314,ramtek,0.0,IN,1549161000.0,82.0,21.4,79.33,59.0,6.62
315,liwale,92.0,TZ,1549163128.0,93.0,-9.8,37.92,73.62,3.15
316,pevek,64.0,RU,1549163129.0,92.0,69.7,170.27,-7.56,16.24
317,roebourne,0.0,AU,1549163129.0,15.0,-20.77,117.15,109.71,3.83
318,puerto narino,40.0,CO,1549159200.0,100.0,-3.77,-70.38,75.2,2.24
319,santa cruz,90.0,US,1549162560.0,82.0,36.97,-122.03,55.4,14.99
320,banff,92.0,CA,1549162836.0,61.0,51.18,-115.57,22.77,1.7
321,spirit river,20.0,CA,1549159200.0,67.0,55.78,-118.84,-25.61,10.29
322,rocha,0.0,UY,1549163133.0,68.0,-34.48,-54.34,61.92,9.42
323,lakes entrance,48.0,AU,1549163133.0,88.0,-37.88,147.99,79.11,0.58
324,bouza,0.0,NE,1549163133.0,36.0,14.42,6.04,58.59,5.84
325,la rioja,76.0,AR,1549163134.0,99.0,-29.41,-66.86,66.42,3.83
326,beringovskiy,88.0,RU,1549163135.0,89.0,63.05,179.32,30.96,28.88
327,benicarlo,0.0,ES,1549163135.0,100.0,40.42,0.43,49.23,38.72
328,pappadatai,40.0,GR,1549162200.0,63.0,39.31,20.79,64.4,5.82
329,mahibadhoo,0.0,MV,1549163135.0,100.0,3.78,72.97,81.72,14.79
330,vila velha,40.0,BR,1549159200.0,78.0,-3.71,-38.6,82.4,4.7
331,roma,75.0,IT,1549162200.0,87.0,41.89,12.48,48.2,6.93
332,petropavlovsk-kamchatskiy,24.0,RU,1549161000.0,55.0,53.05,158.65,35.6,15.66
333,la ronge,90.0,CA,1549159200.0,68.0,55.1,-105.3,-14.81,9.17
334,sistranda,0.0,NO,1549158600.0,68.0,63.73,8.83,24.8,17.22
335,opuwo,92.0,NA,1549163137.0,61.0,-18.06,13.84,64.04,2.59
336,golden,80.0,CA,1549163138.0,82.0,51.3,-116.96,21.38,0.36
337,quatre cocos,20.0,MU,1549159200.0,94.0,-20.21,57.76,73.4,4.16
338,porvoo,75.0,FI,1549162200.0,92.0,60.4,25.66,26.6,18.34
339,bethel,90.0,US,1549159800.0,100.0,60.79,-161.76,33.98,12.75
340,lazaro cardenas,20.0,MX,1549158900.0,46.0,28.39,-105.62,59.0,6.93
341,coos bay,90.0,US,1549158960.0,96.0,43.37,-124.22,50.0,5.82
342,nabire,64.0,ID,1549163140.0,77.0,-3.36,135.5,79.38,2.48
343,husavik,88.0,CA,1549163141.0,82.0,50.56,-96.99,5.31,7.29
344,yaring,75.0,TH,1549159200.0,100.0,6.87,101.37,77.0,6.93
345,cap malheureux,20.0,MU,1549159200.0,94.0,-19.98,57.61,73.4,9.75
346,sibolga,20.0,ID,1549163142.0,90.0,1.74,98.78,77.04,2.04
347,saint-georges,56.0,CA,1549163142.0,72.0,46.12,-70.67,12.11,7.4
348,kaseda,75.0,JP,1549160520.0,100.0,31.42,130.32,53.6,3.36
349,teresina,90.0,BR,1549159200.0,94.0,-5.09,-42.81,73.4,4.7
350,sao filipe,80.0,CV,1549163143.0,100.0,14.9,-24.5,69.98,15.79
351,herzberg,80.0,DE,1549163144.0,95.0,51.66,10.34,29.88,7.74
352,turan,32.0,RU,1549163144.0,61.0,52.15,93.92,-23.72,1.7
353,stabat,20.0,ID,1549159200.0,83.0,3.76,98.46,80.6,4.7
354,gobabis,64.0,NA,1549163145.0,98.0,-22.45,18.97,61.47,5.84
355,daru,0.0,SL,1549163145.0,94.0,7.99,-10.85,72.81,3.71
356,surt,0.0,LY,1549163146.0,69.0,31.21,16.59,62.01,16.13
357,turayf,0.0,SA,1549159200.0,100.0,31.68,38.65,39.2,8.05
358,alta floresta,24.0,BR,1549163146.0,93.0,-9.87,-56.08,75.24,2.37
359,livermore,90.0,US,1549162560.0,63.0,37.68,-121.77,55.94,11.41
360,ambulu,36.0,ID,1549163147.0,100.0,-8.35,113.61,82.31,5.39
361,kumluca,0.0,TR,1549163147.0,77.0,36.37,30.29,18.36,0.69
362,ponta delgada,75.0,PT,1549161000.0,82.0,37.73,-25.67,60.8,12.75
363,verkhnevilyuysk,68.0,RU,1549163148.0,48.0,63.45,120.31,-29.34,8.52
364,nizwa,56.0,OM,1549163148.0,99.0,22.93,57.53,55.94,3.38
365,misawa,40.0,JP,1549159200.0,51.0,40.75,141.38,37.4,8.05
366,pacific grove,90.0,US,1549162440.0,83.0,36.62,-121.92,53.06,13.87
367,trujillo,75.0,PE,1549159200.0,88.0,-8.11,-79.03,75.2,9.17
368,san carlos de bariloche,0.0,AR,1549159200.0,28.0,-41.13,-71.31,68.0,5.82
369,brazzaville,20.0,CD,1549159200.0,88.0,-4.27,15.27,80.6,1.12
370,comodoro rivadavia,0.0,AR,1549159200.0,55.0,-45.87,-67.48,66.2,3.36
371,nalut,0.0,LY,1549163150.0,47.0,31.86,10.98,45.86,7.52
372,qandala,20.0,SO,1549163150.0,100.0,11.47,49.87,55.31,2.93
373,mozarlandia,24.0,BR,1549163111.0,82.0,-14.74,-50.57,73.53,2.59
374,esperance,20.0,TT,1549159200.0,83.0,10.24,-61.45,73.4,3.36
375,belyy yar,0.0,RU,1549161000.0,75.0,53.6,91.39,-18.41,4.47
376,havelock,90.0,US,1549162680.0,86.0,34.88,-76.9,50.0,4.72
377,ojinaga,1.0,US,1549161300.0,39.0,29.56,-104.41,60.26,6.93
378,kruisfontein,0.0,ZA,1549163152.0,90.0,-34.0,24.73,65.88,3.38
379,marquette,90.0,US,1549158960.0,85.0,46.54,-87.4,23.0,4.7
380,mpulungu,88.0,ZM,1549163153.0,97.0,-8.77,31.12,61.43,2.82
381,nova olimpia,0.0,BR,1549163093.0,91.0,-14.8,-57.29,75.96,4.16
382,ibra,0.0,OM,1549163153.0,100.0,22.69,58.55,52.47,2.71
383,carnarvon,0.0,ZA,1549163154.0,63.0,-30.97,22.13,48.6,2.82
384,garissa,0.0,KE,1549163154.0,82.0,-0.46,39.64,69.75,4.38
385,metro,88.0,ID,1549163155.0,100.0,-5.11,105.31,78.53,4.94
386,ullapool,44.0,GB,1549163155.0,100.0,57.9,-5.16,37.31,6.73
387,bagala,24.0,BF,1549163155.0,41.0,12.6,-3.83,71.06,6.17
388,leningradskiy,76.0,RU,1549163156.0,88.0,69.38,178.42,3.96,16.02
389,hamilton,40.0,BM,1549158900.0,82.0,32.3,-64.78,60.8,8.05
390,walvis bay,80.0,NA,1549159200.0,82.0,-22.95,14.51,62.6,3.36
391,khani,64.0,GE,1549161000.0,100.0,41.96,42.96,39.2,4.7
392,baculin,56.0,PH,1549163157.0,94.0,7.45,126.58,79.02,7.18
393,miri,8.0,NG,1549163157.0,61.0,10.31,9.75,59.09,2.93
394,asbestos,75.0,CA,1549161540.0,92.0,45.78,-71.93,12.2,8.05
395,denpasar,20.0,ID,1549161000.0,79.0,-8.65,115.22,86.0,12.75
396,pangnirtung,12.0,CA,1549163158.0,55.0,66.15,-65.72,-11.61,4.05
397,saint-pierre,90.0,FR,1549161000.0,100.0,48.95,4.24,37.4,18.34
398,luganville,56.0,VU,1549163160.0,100.0,-15.51,167.18,82.26,7.4
399,saint-louis,90.0,CH,1549162200.0,93.0,47.59,7.56,41.0,8.05
400,demba,68.0,CD,1549163161.0,98.0,-5.47,22.27,70.43,2.15
401,kimbe,92.0,PG,1549163161.0,100.0,-5.56,150.15,78.71,5.95
402,mount darwin,44.0,ZW,1549163161.0,89.0,-16.77,31.58,67.19,3.49
403,merauke,76.0,ID,1549163162.0,84.0,-8.49,140.4,85.19,19.04
404,darhan,0.0,MN,1549163162.0,45.0,49.49,105.92,-9.18,8.86
405,biltine,0.0,TD,1549163162.0,33.0,14.53,20.93,69.66,9.64
406,inhambane,80.0,MZ,1549163163.0,96.0,-23.87,35.38,76.73,8.86
407,iwata,20.0,JP,1549159200.0,30.0,34.71,137.85,53.6,9.17
408,tateyama,75.0,JP,1549159200.0,49.0,36.66,137.31,46.4,4.7
409,nieuw nickerie,100.0,SR,1549163164.0,99.0,5.94,-56.99,78.3,11.21
410,gwadar,32.0,PK,1549163164.0,95.0,25.12,62.33,63.68,5.17
411,kloulklubed,75.0,PW,1549158600.0,74.0,7.04,134.26,84.2,13.87
412,lashio,0.0,MM,1549163165.0,71.0,22.93,97.75,64.17,2.48
413,rovaniemi,0.0,FI,1549162200.0,75.0,66.5,25.72,-13.01,10.29
414,egvekinot,88.0,RU,1549163165.0,89.0,66.32,-179.17,9.72,4.16
415,saint george,20.0,GR,1549162200.0,81.0,39.45,22.34,48.2,1.92
416,eskilstuna,90.0,SE,1549160400.0,92.0,59.37,16.51,30.2,19.46
417,krasna lipa,90.0,CZ,1549159200.0,89.0,50.48,13.36,32.0,2.24
418,talnakh,20.0,RU,1549163167.0,63.0,69.49,88.39,-34.2,6.4
419,richards bay,48.0,ZA,1549162951.0,100.0,-28.77,32.06,67.77,4.05
420,mlonggo,20.0,ID,1549161000.0,83.0,-6.53,110.7,82.4,3.36
421,walcz,92.0,PL,1549163168.0,98.0,53.28,16.47,32.36,10.76
422,bonavista,48.0,CA,1549163168.0,100.0,48.65,-53.11,17.51,13.67
423,sinop,0.0,TR,1549163168.0,89.0,42.03,35.15,48.11,5.39
424,shangqiu,92.0,CN,1549163169.0,92.0,34.42,115.65,38.93,11.54
425,chodziez,90.0,PL,1549161000.0,96.0,52.99,16.92,32.0,5.82
426,esik,90.0,KZ,1549161000.0,85.0,43.36,77.47,15.8,2.24
427,tampakan,90.0,PH,1549159200.0,65.0,6.44,124.93,82.4,9.17
428,lasalgaon,8.0,IN,1549163170.0,76.0,20.14,74.24,64.98,2.04
429,paramonga,68.0,PE,1549163171.0,100.0,-10.68,-77.82,72.63,8.75
430,hue,20.0,VN,1549161000.0,74.0,16.47,107.58,78.8,2.24
431,alugan,32.0,PH,1549163172.0,87.0,12.22,125.48,80.78,13.33
432,paita,92.0,PE,1549163172.0,90.0,-5.09,-81.11,74.34,3.94
433,zunyi,12.0,CN,1549163172.0,82.0,27.73,106.92,47.21,10.87
434,arlit,0.0,NE,1549163173.0,37.0,18.74,7.39,52.11,4.94
435,manicore,8.0,BR,1549162895.0,93.0,-5.81,-61.3,77.13,2.37
436,hammerfest,8.0,NO,1549160400.0,61.0,70.66,23.68,14.0,41.38
437,tartagal,92.0,AR,1549163174.0,96.0,-22.52,-63.8,70.92,18.59
438,qrendi,0.0,MT,1549161900.0,81.0,35.83,14.46,53.6,9.17
439,fukue,40.0,JP,1549161120.0,50.0,35.03,136.69,51.8,5.82
440,guasdualito,0.0,VE,1549159200.0,57.0,7.24,-70.73,78.8,6.85
441,karasburg,0.0,NA,1549163176.0,83.0,-28.01,18.75,52.16,6.51
442,bonthe,0.0,SL,1549163176.0,99.0,7.53,-12.5,75.33,3.49
443,san juan,0.0,AR,1549163177.0,87.0,-31.54,-68.53,62.24,3.38
444,linjiang,92.0,CN,1549163178.0,87.0,41.81,126.91,32.94,3.83
445,dunedin,24.0,NZ,1549163178.0,65.0,-45.87,170.5,65.61,5.84
446,isangel,88.0,VU,1549163178.0,100.0,-19.55,169.27,77.58,8.97
447,monze,0.0,ZM,1549163179.0,88.0,-16.28,27.48,61.56,3.71
448,taicheng,80.0,CN,1549163179.0,72.0,22.25,112.8,76.46,4.05
449,canatlan,20.0,MX,1549158060.0,15.0,24.52,-104.78,60.8,4.7
450,buchanan,75.0,LR,1549161000.0,94.0,5.88,-10.05,75.2,3.6
451,jizan,20.0,SA,1549159200.0,83.0,16.89,42.56,75.2,4.61
452,maceio,75.0,BR,1549159200.0,88.0,-9.67,-35.74,77.0,10.29
453,homestead,40.0,US,1549162380.0,94.0,25.47,-80.48,71.96,3.04
454,lazarev,12.0,RU,1549163181.0,68.0,52.23,141.51,7.88,10.42
455,praia da vitoria,20.0,PT,1549159200.0,82.0,38.73,-27.07,60.8,17.47
456,mocuba,80.0,MZ,1549163182.0,97.0,-16.84,36.99,73.89,3.38
457,phu ly,0.0,VN,1549163182.0,85.0,20.54,105.91,77.09,6.73
458,formosa do rio preto,64.0,BR,1549163183.0,82.0,-11.04,-45.19,73.49,2.93
459,luang prabang,90.0,LA,1549159200.0,88.0,19.89,102.14,66.2,2.24
460,igrim,32.0,RU,1549163183.0,45.0,63.19,64.42,-27.77,4.38
461,lukovetskiy,20.0,RU,1549161000.0,76.0,64.29,41.92,-11.21,2.82
462,hobyo,88.0,SO,1549163184.0,82.0,5.35,48.53,75.6,18.03
463,henties bay,88.0,NA,1549163185.0,100.0,-22.12,14.28,62.28,6.29
464,lebu,0.0,ET,1549163185.0,63.0,8.96,38.73,33.53,2.48
465,wajir,0.0,KE,1549163185.0,64.0,1.75,40.07,66.69,4.16
466,puerto cabezas,44.0,NI,1549163187.0,93.0,14.04,-83.39,79.11,12.66
467,boyolangu,12.0,ID,1549163187.0,86.0,-8.09,111.9,82.94,3.71
468,sola,8.0,NO,1549162200.0,74.0,58.89,5.65,30.2,11.41
469,shingu,75.0,JP,1549159200.0,62.0,33.72,135.99,57.2,8.05
470,southbridge,90.0,US,1549162440.0,62.0,42.08,-72.03,32.0,10.29
471,tsurib,0.0,RU,1549163188.0,61.0,42.24,46.83,-1.89,1.25
472,estelle,90.0,US,1549162500.0,82.0,32.87,-97.01,62.24,9.17
473,kokstad,88.0,ZA,1549162949.0,96.0,-30.55,29.42,58.73,2.04
474,mincivan,92.0,AZ,1549163189.0,97.0,39.03,46.72,32.22,1.81
475,havre-saint-pierre,40.0,CA,1549159200.0,71.0,50.23,-63.6,3.2,13.87
476,coihaique,0.0,CL,1549159200.0,55.0,-45.58,-72.07,66.2,5.82
477,chicama,75.0,PE,1549159200.0,88.0,-7.84,-79.15,75.2,9.17
478,eureka,90.0,US,1549161300.0,100.0,40.8,-124.16,53.06,5.82
479,qixingtai,92.0,CN,1549163191.0,81.0,30.41,111.89,45.36,11.43
480,zavodouspenskoye,40.0,RU,1549161000.0,76.0,56.86,65.02,-11.21,6.71
481,kokopo,68.0,PG,1549163192.0,100.0,-4.34,152.27,82.44,10.65
482,price,90.0,US,1549158780.0,72.0,39.6,-110.81,33.98,2.26
483,gravdal,8.0,NO,1549162200.0,74.0,59.79,5.78,32.0,11.41
484,masallatah,44.0,LY,1549163193.0,53.0,32.62,14.0,52.29,9.98
485,mushie,36.0,CD,1549163193.0,99.0,-3.02,16.92,75.11,1.92
486,bajil,0.0,ES,1549163193.0,68.0,38.23,-2.07,36.86,18.03
487,narsaq,76.0,GL,1549158600.0,38.0,60.91,-46.05,24.8,18.34
488,ihtiman,32.0,BG,1549161000.0,93.0,42.44,23.81,35.6,2.24
489,maragogi,92.0,BR,1549163194.0,100.0,-9.01,-35.22,74.88,4.94
490,san vicente,0.0,SV,1549158600.0,78.0,13.64,-88.78,78.8,4.7
491,beihai,40.0,CN,1549161000.0,29.0,38.95,121.19,35.6,22.37
492,maxixe,80.0,MZ,1549163197.0,96.0,-23.86,35.35,76.73,8.86
493,kiunga,8.0,PG,1549163197.0,58.0,-6.12,141.3,92.16,2.93
494,sobolevo,92.0,RU,1549163197.0,98.0,54.43,31.9,33.03,14.0
495,khash,88.0,IR,1549163198.0,94.0,28.22,61.21,49.23,7.52
496,khor,56.0,RU,1549163198.0,69.0,47.88,134.96,13.86,4.16
497,bayan,0.0,MN,1549163198.0,48.0,47.25,107.54,-11.93,8.75
498,juchipila,0.0,MX,1549163199.0,56.0,21.41,-103.12,49.01,2.48
499,robertsport,24.0,LR,1549163199.0,100.0,6.75,-11.37,80.96,6.4
500,jacareacanga,12.0,BR,1549163199.0,95.0,-6.22,-57.76,76.32,2.04
501,mao,20.0,DO,1549162800.0,78.0,19.55,-71.08,73.4,6.93
502,virginia beach,1.0,US,1549162740.0,88.0,36.85,-75.98,38.12,3.71
503,matara,92.0,PE,1549163201.0,99.0,-13.74,-72.9,45.63,2.15
504,beyla,64.0,GN,1549163201.0,97.0,8.69,-8.65,67.73,3.94
505,durban,90.0,FR,1549161000.0,86.0,43.54,0.58,33.8,10.29
506,puerto penasco,68.0,MX,1549163202.0,90.0,31.32,-113.53,63.99,20.15
507,puerto del rosario,0.0,ES,1549161000.0,63.0,28.5,-13.86,62.6,26.4
508,ereymentau,80.0,KZ,1549163203.0,83.0,51.62,73.1,2.93,3.6
509,shimoda,20.0,JP,1549159200.0,50.0,34.7,138.93,57.2,11.41
510,sergeyevka,92.0,KZ,1549163203.0,78.0,53.88,67.42,2.34,9.86
511,sombrio,92.0,BR,1549163015.0,100.0,-29.11,-49.63,71.51,6.73
512,foumban,32.0,CM,1549163204.0,67.0,5.73,10.9,64.44,2.59
513,banjar,20.0,ID,1549163204.0,80.0,-7.37,108.54,82.49,3.71
514,manaure,0.0,CO,1549163205.0,95.0,11.78,-72.45,77.36,22.5
515,ulladulla,0.0,AU,1549159200.0,55.0,-35.36,150.48,87.8,12.75
516,salta,90.0,AR,1549159200.0,93.0,-24.79,-65.41,68.0,8.05
517,zhicheng,56.0,CN,1549163206.0,67.0,35.04,112.59,41.54,6.4
518,luanda,75.0,AO,1549159200.0,88.0,-8.83,13.24,80.6,3.36
519,komsomolskiy,0.0,RU,1549163207.0,41.0,67.55,63.78,-26.1,10.2
520,port keats,0.0,AU,1549163207.0,74.0,-14.25,129.55,90.72,22.06
521,sungaipenuh,44.0,ID,1549163207.0,87.0,-2.08,101.38,72.63,0.92
522,tocopilla,44.0,CL,1549163208.0,93.0,-22.09,-70.2,66.74,3.38
523,sechura,56.0,PE,1549163208.0,84.0,-5.56,-80.82,75.42,5.95
524,constitucion,20.0,MX,1549161840.0,18.0,23.99,-104.67,60.8,9.17
525,lagoa,0.0,PT,1549161000.0,75.0,37.14,-8.45,44.6,3.36
526,caravelas,80.0,BR,1549163209.0,100.0,-17.73,-39.27,81.45,13.22
527,emba,0.0,CY,1549161000.0,81.0,34.81,32.42,50.0,8.05
528,dakar,44.0,SN,1549161000.0,82.0,14.69,-17.45,64.4,18.34
529,baruun-urt,0.0,MN,1549163210.0,45.0,46.68,113.28,-9.0,8.63
530,suntar,64.0,RU,1549163211.0,56.0,62.16,117.65,-32.4,7.96
531,les cayes,92.0,HT,1549163211.0,100.0,18.19,-73.75,76.91,6.96
532,fortuna,0.0,ES,1549161000.0,39.0,38.18,-1.13,50.0,29.97
533,anchorage,90.0,US,1549160760.0,78.0,61.22,-149.89,17.96,4.7
534,luderitz,64.0,NA,1549163212.0,93.0,-26.65,15.16,58.68,9.08
535,bilibino,88.0,RU,1549163212.0,68.0,68.06,166.44,-10.85,4.27
536,bereda,90.0,ES,1549161000.0,100.0,43.27,-7.54,33.8,4.7
537,valdivia,0.0,CL,1549159200.0,44.0,-39.81,-73.25,75.2,4.7
538,anshun,0.0,CN,1549163213.0,62.0,26.25,105.93,46.89,15.46
539,ionia,90.0,US,1549162500.0,80.0,42.99,-85.07,41.0,8.05
540,kirakira,56.0,SB,1549163214.0,100.0,-10.46,161.92,83.21,14.56
541,port moresby,75.0,PG,1549159200.0,62.0,-9.47,147.16,89.6,23.04
542,jiangyou,32.0,CN,1549163215.0,53.0,31.78,104.73,46.17,6.85
543,nome,90.0,US,1549162500.0,93.0,30.04,-94.42,61.16,5.82
544,san andres,8.0,PH,1549163216.0,96.0,13.32,122.68,79.38,11.65
545,mehamn,0.0,NO,1549163216.0,87.0,71.03,27.85,12.11,9.53
546,ust-nera,8.0,RU,1549163216.0,45.0,64.57,143.24,-30.83,2.15
